header: 
  seq: 44
  stamp: 
    secs: 1381688110
    nsecs: 898432842
  frame_id: odom
pose: 
  pose: 
    position: 
      x: -2.19999928323e-10
      y: -2.19999928323e-10
      z: -2.19999928323e-10
    orientation: 
      x: -8.78653074779e-12
      y: 1.1841217351e-11
      z: -0.536525101536
      w: 0.843884361404
  covariance: [0.0, 6.913496778346103e-15, 6.913496778346103e-15, 6.9134967783461955e-15, 6.9134967783461955e-15, 6.9134967783461955e-15, 6.913496778346103e-15, 0.0, 6.913496778346103e-15, 6.9134967783461955e-15, 6.9134967783461955e-15, 6.9134967783461955e-15, 6.913496778346103e-15, 6.913496778346103e-15, 0.0, 6.9134967783461955e-15, 6.9134967783461955e-15, 6.9134967783461955e-15, 6.9134967783461955e-15, 6.9134967783461955e-15, 6.9134967783461955e-15, 6.9135235730710676e-15, 6.9134967783461955e-15, 6.9134967783461955e-15, 6.9134967783461955e-15, 6.9134967783461955e-15, 6.9134967783461955e-15, 6.9134967783461955e-15, 6.9135235730710676e-15, 6.9134967783461955e-15, 6.9134967783461955e-15, 6.9134967783461955e-15, 6.9134967783461955e-15, 6.9134967783461955e-15, 6.9134967783461955e-15, 6.9135235730710676e-15]
---
header: 
  seq: 45
  stamp: 
    secs: 1381688111
    nsecs: 815338576
  frame_id: odom
pose: 
  pose: 
    position: 
      x: -2.29168986443e-10
      y: -2.29168986443e-10
      z: -2.29168986443e-10
    orientation: 
      x: -7.69017495877e-12
      y: 1.04426982749e-11
      z: -0.107652062737
      w: 0.994188630688
  covariance: [0.0, 8.407161250168575e-13, 8.407161250168575e-13, 8.407161250168575e-13, 8.407161250168575e-13, 8.407161250168575e-13, 8.407161250168575e-13, 0.0, 8.407161250168575e-13, 8.407161250168575e-13, 8.407161250168575e-13, 8.407161250168575e-13, 8.407161250168575e-13, 8.407161250168575e-13, 0.0, 8.407161250168575e-13, 8.407161250168575e-13, 8.407161250168575e-13, 8.407161250168575e-13, 8.407161250168575e-13, 8.407161250168575e-13, 8.407163853973998e-13, 8.407161250168577e-13, 8.407161250168576e-13, 8.407161250168575e-13, 8.407161250168575e-13, 8.407161250168575e-13, 8.407161250168577e-13, 8.407163853973998e-13, 8.407161250168576e-13, 8.407161250168575e-13, 8.407161250168575e-13, 8.407161250168575e-13, 8.407161250168576e-13, 8.407161250168576e-13, 8.407163853973998e-13]
---
header: 
  seq: 46
  stamp: 
    secs: 1381688111
    nsecs: 898451602
  frame_id: odom
pose: 
  pose: 
    position: 
      x: -2.3000011651e-10
      y: -2.3000011651e-10
      z: -2.3000011651e-10
    orientation: 
      x: -7.69188400282e-12
      y: 1.03660492598e-11
      z: -0.0662559992597
      w: 0.997802657123
  covariance: [0.0, 6.9077750906694215e-15, 6.9077750906694215e-15, 6.907775090669444e-15, 6.907775090669444e-15, 6.907775090669444e-15, 6.9077750906694215e-15, 0.0, 6.9077750906694215e-15, 6.907775090669444e-15, 6.907775090669444e-15, 6.907775090669444e-15, 6.9077750906694215e-15, 6.9077750906694215e-15, 0.0, 6.907775090669444e-15, 6.907775090669444e-15, 6.907775090669444e-15, 6.907775090669444e-15, 6.907775090669444e-15, 6.907775090669444e-15, 6.9077773015568944e-15, 6.907775090669444e-15, 6.907775090669443e-15, 6.907775090669444e-15, 6.907775090669444e-15, 6.907775090669444e-15, 6.907775090669444e-15, 6.9077773015568944e-15, 6.907775090669444e-15, 6.907775090669444e-15, 6.907775090669444e-15, 6.907775090669444e-15, 6.907775090669443e-15, 6.907775090669444e-15, 6.9077773015568944e-15]
---
header: 
  seq: 47
  stamp: 
    secs: 1381688112
    nsecs: 815338260
  frame_id: odom
pose: 
  pose: 
    position: 
      x: -2.3916898386e-10
      y: -2.3916898386e-10
      z: -2.3916898386e-10
    orientation: 
      x: -4.79454952734e-12
      y: 6.71128086094e-12
      z: 0.38216570072
      w: 0.924093814065
  covariance: [0.0, 8.406811435931886e-13, 8.406811435931886e-13, 8.406811435931886e-13, 8.406811435931886e-13, 8.406811435931886e-13, 8.406811435931886e-13, 0.0, 8.406811435931886e-13, 8.406811435931886e-13, 8.406811435931886e-13, 8.406811435931886e-13, 8.406811435931886e-13, 8.406811435931886e-13, 0.0, 8.406811435931886e-13, 8.406811435931886e-13, 8.406811435931886e-13, 8.406811435931886e-13, 8.406811435931886e-13, 8.406811435931886e-13, 8.406747520339763e-13, 8.406811435931887e-13, 8.406811435931887e-13, 8.406811435931886e-13, 8.406811435931886e-13, 8.406811435931886e-13, 8.406811435931887e-13, 8.406747520339763e-13, 8.406811435931887e-13, 8.406811435931886e-13, 8.406811435931886e-13, 8.406811435931886e-13, 8.406811435931887e-13, 8.406811435931887e-13, 8.406747520339763e-13]
---
header: 
  seq: 48
  stamp: 
    secs: 1381688112
    nsecs: 898463173
  frame_id: odom
pose: 
  pose: 
    position: 
      x: -2.40000232996e-10
      y: -2.40000232996e-10
      z: -2.40000232996e-10
    orientation: 
      x: -4.71403776135e-12
      y: 6.35289745831e-12
      z: 0.420232216574
      w: 0.907416599007
  covariance: [0.0, 6.90975116105015e-15, 6.90975116105015e-15, 6.909751161050277e-15, 6.909751161050279e-15, 6.909751161050279e-15, 6.90975116105015e-15, 0.0, 6.90975116105015e-15, 6.909751161050277e-15, 6.909751161050279e-15, 6.909751161050279e-15, 6.90975116105015e-15, 6.90975116105015e-15, 0.0, 6.909751161050277e-15, 6.909751161050279e-15, 6.909751161050279e-15, 6.909751161050277e-15, 6.909751161050277e-15, 6.909751161050277e-15, 6.909728865467368e-15, 6.909751161050279e-15, 6.90975116105028e-15, 6.909751161050279e-15, 6.909751161050279e-15, 6.909751161050279e-15, 6.909751161050279e-15, 6.909728865467368e-15, 6.909751161050279e-15, 6.909751161050279e-15, 6.909751161050279e-15, 6.909751161050279e-15, 6.90975116105028e-15, 6.909751161050279e-15, 6.909728865467368e-15]
---
header: 
  seq: 49
  stamp: 
    secs: 1381688113
    nsecs: 815339999
  frame_id: odom
pose: 
  pose: 
    position: 
      x: -2.49169002023e-10
      y: -2.49169002023e-10
      z: -2.49169002023e-10
    orientation: 
      x: -7.25100841702e-13
      y: 1.33671703374e-12
      z: 0.778416675058
      w: 0.627747943041
  covariance: [0.0, 8.406631140306149e-13, 8.406631140306149e-13, 8.406631140306146e-13, 8.406631140306146e-13, 8.406631140306147e-13, 8.406631140306149e-13, 0.0, 8.406631140306149e-13, 8.406631140306146e-13, 8.406631140306146e-13, 8.406631140306147e-13, 8.406631140306149e-13, 8.406631140306149e-13, 0.0, 8.406631140306146e-13, 8.406631140306146e-13, 8.406631140306147e-13, 8.406631140306146e-13, 8.406631140306146e-13, 8.406631140306146e-13, 8.406608742461685e-13, 8.406631140306143e-13, 8.406631140306143e-13, 8.406631140306146e-13, 8.406631140306146e-13, 8.406631140306146e-13, 8.406631140306143e-13, 8.406608742461685e-13, 8.406631140306148e-13, 8.406631140306147e-13, 8.406631140306147e-13, 8.406631140306147e-13, 8.406631140306143e-13, 8.406631140306148e-13, 8.406608742461685e-13]
---
header: 
  seq: 50
  stamp: 
    secs: 1381688113
    nsecs: 898463164
  frame_id: odom
pose: 
  pose: 
    position: 
      x: -2.50000233733e-10
      y: -2.50000233733e-10
      z: -2.50000233733e-10
    orientation: 
      x: -5.82085748071e-13
      y: 7.84372588794e-13
      z: 0.803827154257
      w: 0.594862930497
  covariance: [0.0, 6.909460559409757e-15, 6.909460559409757e-15, 6.9094605594099415e-15, 6.9094605594099415e-15, 6.9094605594099415e-15, 6.909460559409757e-15, 0.0, 6.909460559409757e-15, 6.9094605594099415e-15, 6.9094605594099415e-15, 6.9094605594099415e-15, 6.909460559409757e-15, 6.909460559409757e-15, 0.0, 6.9094605594099415e-15, 6.9094605594099415e-15, 6.9094605594099415e-15, 6.9094605594099415e-15, 6.9094605594099415e-15, 6.9094605594099415e-15, 6.909512025032871e-15, 6.9094605594099415e-15, 6.9094605594099415e-15, 6.9094605594099415e-15, 6.9094605594099415e-15, 6.9094605594099415e-15, 6.9094605594099415e-15, 6.909512025032871e-15, 6.909460559409941e-15, 6.9094605594099415e-15, 6.9094605594099415e-15, 6.9094605594099415e-15, 6.9094605594099415e-15, 6.909460559409941e-15, 6.909512025032871e-15]
---
header: 
  seq: 51
  stamp: 
    secs: 1381688114
    nsecs: 815339193
  frame_id: odom
pose: 
  pose: 
    position: 
      x: -2.59168994784e-10
      y: -2.59168994784e-10
      z: -2.59168994784e-10
    orientation: 
      x: 3.52186998958e-12
      y: -4.36511110234e-12
      z: 0.984083223998
      w: 0.177708210968
  covariance: [0.0, 8.406616525295891e-13, 8.406616525295891e-13, 8.406616525295889e-13, 8.406616525295889e-13, 8.406616525295889e-13, 8.406616525295891e-13, 0.0, 8.406616525295891e-13, 8.406616525295889e-13, 8.406616525295889e-13, 8.406616525295889e-13, 8.406616525295891e-13, 8.406616525295891e-13, 0.0, 8.406616525295889e-13, 8.406616525295889e-13, 8.406616525295889e-13, 8.406616525295889e-13, 8.406616525295889e-13, 8.406616525295889e-13, 8.406608742461685e-13, 8.406616525295892e-13, 8.406616525295892e-13, 8.406616525295889e-13, 8.406616525295889e-13, 8.406616525295889e-13, 8.406616525295892e-13, 8.406608742461685e-13, 8.406616525295892e-13, 8.406616525295889e-13, 8.406616525295889e-13, 8.406616525295889e-13, 8.406616525295892e-13, 8.406616525295892e-13, 8.406608742461685e-13]
---
header: 
  seq: 52
  stamp: 
    secs: 1381688114
    nsecs: 898476319
  frame_id: odom
pose: 
  pose: 
    position: 
      x: -2.60000366085e-10
      y: -2.60000366085e-10
      z: -2.60000366085e-10
    orientation: 
      x: 3.69240678709e-12
      y: -4.97629035801e-12
      z: 0.990618073105
      w: 0.136659552314
  covariance: [0.0, 6.911781719332542e-15, 6.911781719332542e-15, 6.911781719332525e-15, 6.911781719332525e-15, 6.911781719332524e-15, 6.911781719332542e-15, 0.0, 6.911781719332542e-15, 6.911781719332525e-15, 6.911781719332525e-15, 6.911781719332524e-15, 6.911781719332542e-15, 6.911781719332542e-15, 0.0, 6.911781719332525e-15, 6.911781719332525e-15, 6.911781719332524e-15, 6.911781719332525e-15, 6.911781719332525e-15, 6.911781719332525e-15, 6.911788849595091e-15, 6.911781719332523e-15, 6.911781719332523e-15, 6.911781719332525e-15, 6.911781719332525e-15, 6.911781719332525e-15, 6.911781719332523e-15, 6.911788849595091e-15, 6.911781719332523e-15, 6.911781719332524e-15, 6.911781719332524e-15, 6.911781719332524e-15, 6.911781719332523e-15, 6.911781719332523e-15, 6.911788849595091e-15]
---
header: 
  seq: 53
  stamp: 
    secs: 1381688115
    nsecs: 815309162
  frame_id: odom
pose: 
  pose: 
    position: 
      x: -2.69168695285e-10
      y: -2.69168695285e-10
      z: -2.69168695285e-10
    orientation: 
      x: 6.90636588084e-12
      y: -8.99823670625e-12
      z: 0.948816873992
      w: -0.315826755718
  covariance: [0.0, 8.405824619782452e-13, 8.405824619782452e-13, 8.405824619782453e-13, 8.405824619782453e-13, 8.405824619782453e-13, 8.405824619782452e-13, 0.0, 8.405824619782452e-13, 8.405824619782453e-13, 8.405824619782453e-13, 8.405824619782453e-13, 8.405824619782452e-13, 8.405824619782452e-13, 0.0, 8.405824619782453e-13, 8.405824619782453e-13, 8.405824619782453e-13, 8.405824619782453e-13, 8.405824619782453e-13, 8.405824619782453e-13, 8.405776075193216e-13, 8.405824619782455e-13, 8.405824619782454e-13, 8.405824619782453e-13, 8.405824619782453e-13, 8.405824619782453e-13, 8.405824619782455e-13, 8.405776075193216e-13, 8.405824619782454e-13, 8.405824619782453e-13, 8.405824619782453e-13, 8.405824619782453e-13, 8.405824619782454e-13, 8.405824619782454e-13, 8.405776075193216e-13]
---
header: 
  seq: 54
  stamp: 
    secs: 1381688115
    nsecs: 898463899
  frame_id: odom
pose: 
  pose: 
    position: 
      x: -2.70000242642e-10
      y: -2.70000242642e-10
      z: -2.70000242642e-10
    orientation: 
      x: 7.0626724086e-12
      y: -9.5186239699e-12
      z: 0.934869430449
      w: -0.354991757669
  covariance: [0.0, 6.9147102853316614e-15, 6.9147102853316614e-15, 6.914710285331728e-15, 6.914710285331728e-15, 6.914710285331728e-15, 6.9147102853316614e-15, 0.0, 6.9147102853316614e-15, 6.914710285331728e-15, 6.914710285331728e-15, 6.914710285331728e-15, 6.9147102853316614e-15, 6.9147102853316614e-15, 0.0, 6.914710285331728e-15, 6.914710285331728e-15, 6.914710285331728e-15, 6.914710285331728e-15, 6.914710285331728e-15, 6.914710285331728e-15, 6.914607775243553e-15, 6.914710285331727e-15, 6.914710285331726e-15, 6.914710285331728e-15, 6.914710285331728e-15, 6.914710285331728e-15, 6.914710285331727e-15, 6.914607775243553e-15, 6.914710285331727e-15, 6.914710285331728e-15, 6.914710285331728e-15, 6.914710285331728e-15, 6.914710285331726e-15, 6.914710285331727e-15, 6.914607775243553e-15]
---
header: 
  seq: 55
  stamp: 
    secs: 1381688116
    nsecs: 815340462
  frame_id: odom
pose: 
  pose: 
    position: 
      x: -2.79169009047e-10
      y: -2.79169009047e-10
      z: -2.79169009047e-10
    orientation: 
      x: -8.60007339753e-12
      y: 1.14283543835e-11
      z: -0.681238273898
      w: 0.732061755712
  covariance: [0.0, 8.406626317534733e-13, 8.406626317534733e-13, 8.40662631753473e-13, 8.406626317534731e-13, 8.406626317534731e-13, 8.406626317534733e-13, 0.0, 8.406626317534733e-13, 8.40662631753473e-13, 8.406626317534731e-13, 8.406626317534731e-13, 8.406626317534733e-13, 8.406626317534733e-13, 0.0, 8.40662631753473e-13, 8.406626317534731e-13, 8.406626317534731e-13, 8.40662631753473e-13, 8.40662631753473e-13, 8.40662631753473e-13, 8.406608742461685e-13, 8.406626317534734e-13, 8.406626317534734e-13, 8.406626317534731e-13, 8.406626317534731e-13, 8.406626317534731e-13, 8.406626317534734e-13, 8.406608742461685e-13, 8.406626317534734e-13, 8.406626317534731e-13, 8.406626317534731e-13, 8.406626317534731e-13, 8.406626317534734e-13, 8.406626317534734e-13, 8.406608742461685e-13]
---
header: 
  seq: 56
  stamp: 
    secs: 1381688116
    nsecs: 898461821
  frame_id: odom
pose: 
  pose: 
    position: 
      x: -2.80000222571e-10
      y: -2.80000222571e-10
      z: -2.80000222571e-10
    orientation: 
      x: -8.70380582557e-12
      y: 1.17302986645e-11
      z: -0.650233784559
      w: 0.759734180762
  covariance: [0.0, 6.909160321799933e-15, 6.909160321799933e-15, 6.909160321799607e-15, 6.909160321799608e-15, 6.909160321799608e-15, 6.909160321799933e-15, 0.0, 6.909160321799933e-15, 6.909160321799607e-15, 6.909160321799608e-15, 6.909160321799608e-15, 6.909160321799933e-15, 6.909160321799933e-15, 0.0, 6.909160321799607e-15, 6.909160321799608e-15, 6.909160321799608e-15, 6.909160321799607e-15, 6.909160321799607e-15, 6.909160321799607e-15, 6.9091867643811256e-15, 6.9091603217996075e-15, 6.9091603217996075e-15, 6.909160321799608e-15, 6.909160321799608e-15, 6.909160321799608e-15, 6.9091603217996075e-15, 6.9091867643811256e-15, 6.9091603217996075e-15, 6.909160321799608e-15, 6.909160321799608e-15, 6.909160321799608e-15, 6.9091603217996075e-15, 6.9091603217996075e-15, 6.9091867643811256e-15]
---
header: 
  seq: 57
  stamp: 
    secs: 1381688117
    nsecs: 815312570
  frame_id: odom
pose: 
  pose: 
    position: 
      x: -2.89168730834e-10
      y: -2.89168730834e-10
      z: -2.89168730834e-10
    orientation: 
      x: -8.18819388862e-12
      y: 1.10603521121e-11
      z: -0.246887242461
      w: 0.969044214425
  covariance: [0.0, 8.406152959166428e-13, 8.406152959166428e-13, 8.406152959166424e-13, 8.406152959166424e-13, 8.406152959166425e-13, 8.406152959166428e-13, 0.0, 8.406152959166428e-13, 8.406152959166424e-13, 8.406152959166424e-13, 8.406152959166425e-13, 8.406152959166428e-13, 8.406152959166428e-13, 0.0, 8.406152959166424e-13, 8.406152959166424e-13, 8.406152959166425e-13, 8.406152959166424e-13, 8.406152959166424e-13, 8.406152959166424e-13, 8.406192408827451e-13, 8.406152959166427e-13, 8.406152959166426e-13, 8.406152959166424e-13, 8.406152959166424e-13, 8.406152959166424e-13, 8.406152959166427e-13, 8.406192408827451e-13, 8.406152959166426e-13, 8.406152959166425e-13, 8.406152959166425e-13, 8.406152959166425e-13, 8.406152959166426e-13, 8.406152959166426e-13, 8.406192408827451e-13]
---

